{
"type": "FeatureCollection",
"crs": { "type": "name", "properties": { "name": "urn:ogc:def:crs:OGC:1.3:CRS84" } },
                                                                                
"features": [
{ "type": "Feature", "properties": { "name": "Morro Toro FS", "owner": "COUNTY", "unit": "SLU", "address": "15325 Hwy 41", "city": "Atascadero", "zip": "93422", "county": "San Luis Obispo", "cad_name": "SLU Morro-Toro Stn", "lat": 35.453548667299998, "lon": -120.751231847, "funding": "A", "phone_num": "805-466-5089", "aka": "#14", "eng_type_1": 0, "eng_type_2": 1, "eng_type_3": 0, "wtender_ty": 0, "wtender__1": 0, "other_reso": "0", "staffing": "V", "type": "FS", "doz_type_2": 0, "remark": null, "class": "SCHED_A", "marker-symbol": "fire-station", "marker-size": "medium", "marker-color": "0000FF" }, "geometry": { "type": "Point", "coordinates": [ -120.751231847170075, 35.453548667327809 ] } },
{ "type": "Feature", "properties": { "name": "South Bay FS", "owner": "COUNTY", "unit": "SLU", "address": "2315 Bayview Heights Drive", "city": "Los Osos", "zip": "93402", "county": "San Luis Obispo", "cad_name": "SLU South Bay Stn", "lat": 35.309413467, "lon": -120.833841323, "funding": "A", "phone_num": "805-528-1053", "aka": "#15", "eng_type_1": 0, "eng_type_2": 2, "eng_type_3": 0, "wtender_ty": 0, "wtender__1": 0, "other_reso": "Sm Rescue", "staffing": "P", "type": "FS", "doz_type_2": 0, "remark": null, "class": "SCHED_A", "marker-symbol": "fire-station", "marker-size": "medium", "marker-color": "0000FF" }, "geometry": { "type": "Point", "coordinates": [ -120.833841323493488, 35.309413467006848 ] } },
{ "type": "Feature", "properties": { "name": "Airport FS", "owner": "COUNTY", "unit": "SLU", "address": "4651 Broad Street", "city": "San Luis Obispo", "zip": "93401", "county": "San Luis Obispo", "cad_name": "SLU Airport Stn", "lat": 35.238103885699999, "lon": -120.636333604, "funding": "A", "phone_num": "805-544-5105", "aka": "#21", "eng_type_1": 0, "eng_type_2": 1, "eng_type_3": 0, "wtender_ty": 0, "wtender__1": 1, "other_reso": "ICS Type 2 Rescue", "staffing": "P", "type": "FS", "doz_type_2": 0, "remark": null, "class": "SCHED_A", "marker-symbol": "fire-station", "marker-size": "medium", "marker-color": "0000FF" }, "geometry": { "type": "Point", "coordinates": [ -120.636333604243688, 35.238103885670611 ] } },
{ "type": "Feature", "properties": { "name": "Mesa FS", "owner": "COUNTY", "unit": "SLU", "address": "2391 Willow Road", "city": "Arroyo Grande", "zip": "93405", "county": "San Luis Obispo", "cad_name": "SLU Mesa Stn", "lat": 35.046849569800003, "lon": -120.587428287, "funding": "A", "phone_num": "805-473-7171", "aka": "#22", "eng_type_1": 0, "eng_type_2": 2, "eng_type_3": 0, "wtender_ty": 0, "wtender__1": 0, "other_reso": "0", "staffing": "P", "type": "FS", "doz_type_2": 0, "remark": null, "class": "SCHED_A", "marker-symbol": "fire-station", "marker-size": "medium", "marker-color": "0000FF" }, "geometry": { "type": "Point", "coordinates": [ -120.587428286788878, 35.046849569764738 ] } },
{ "type": "Feature", "properties": { "name": "Oak Shores FS", "owner": "COUNTY", "unit": "SLU", "address": "2569 Shoreline Drive", "city": "Paso Robles", "zip": "93446", "county": "San Luis Obispo", "cad_name": "SLU Oak Shores Stn", "lat": 35.756706686, "lon": -120.984282557, "funding": "A", "phone_num": "805-427-9548", "aka": "#34", "eng_type_1": 0, "eng_type_2": 1, "eng_type_3": 0, "wtender_ty": 0, "wtender__1": 0, "other_reso": "0", "staffing": "V", "type": "FS", "doz_type_2": 0, "remark": null, "class": "SCHED_A", "marker-symbol": "fire-station", "marker-size": "medium", "marker-color": "0000FF" }, "geometry": { "type": "Point", "coordinates": [ -120.984282556957055, 35.756706685998694 ] } },
{ "type": "Feature", "properties": { "name": "Heritage Ranch FS", "owner": "COUNTY", "unit": "SLU", "address": "#3 Village Rd, Heritage Rnch 1", "city": "Paso Robles", "zip": "93446", "county": "San Luis Obispo", "cad_name": "SLU Heritage Ranch Stn", "lat": 35.721976334499999, "lon": -120.885694579, "funding": "A", "phone_num": "805-227-6553", "aka": "#33", "eng_type_1": 2, "eng_type_2": 0, "eng_type_3": 0, "wtender_ty": 0, "wtender__1": 0, "other_reso": "Sm Rescue", "staffing": "P", "type": "FS", "doz_type_2": 0, "remark": null, "class": "SCHED_A", "marker-symbol": "fire-station", "marker-size": "medium", "marker-color": "0000FF" }, "geometry": { "type": "Point", "coordinates": [ -120.885694578550314, 35.721976334547954 ] } },
{ "type": "Feature", "properties": { "name": "Meridian FS", "owner": "COUNTY", "unit": "SLU", "address": "4050 Branch", "city": "Paso Robles", "zip": "93446", "county": "San Luis Obispo", "cad_name": "SLU Meridian Stn", "lat": 35.660584179300002, "lon": -120.578517157, "funding": "A", "phone_num": "805-237-3155", "aka": "#36", "eng_type_1": 1, "eng_type_2": 0, "eng_type_3": 0, "wtender_ty": 0, "wtender__1": 0, "other_reso": "0", "staffing": "P", "type": "FS", "doz_type_2": 0, "remark": null, "class": "SCHED_A", "marker-symbol": "fire-station", "marker-size": "medium", "marker-color": "0000FF" }, "geometry": { "type": "Point", "coordinates": [ -120.578517157124125, 35.660584179308792 ] } },
{ "type": "Feature", "properties": { "name": "Creston FS", "owner": "COUNTY", "unit": "SLU", "address": "6055 Webster Rd", "city": "Creston", "zip": "93432", "county": "San Luis Obispo", "cad_name": "SLU Creston Stn", "lat": 35.526373, "lon": -120.521403, "funding": "A", "phone_num": "805-238-4343", "aka": "#43", "eng_type_1": 1, "eng_type_2": 1, "eng_type_3": 0, "wtender_ty": 0, "wtender__1": 0, "other_reso": "0", "staffing": "P", "type": "FS", "doz_type_2": 0, "remark": null, "class": "SCHED_A", "marker-symbol": "fire-station", "marker-size": "medium", "marker-color": "0000FF" }, "geometry": { "type": "Point", "coordinates": [ -120.521406196417473, 35.526363102690887 ] } },
{ "type": "Feature", "properties": { "name": "Carrizo Plain FS", "owner": "COUNTY", "unit": "SLU", "address": "13080 Soda Lake Rd, POB 3099", "city": "California Valley", "zip": "93453", "county": "San Luis Obispo", "cad_name": "SLU Carrizo Plain Stn", "lat": 35.320954291699998, "lon": -120.003495395, "funding": "A", "phone_num": "805-475-2322", "aka": "#42", "eng_type_1": 0, "eng_type_2": 0, "eng_type_3": 1, "wtender_ty": 0, "wtender__1": 0, "other_reso": "Sm Rescue", "staffing": "P", "type": "FS", "doz_type_2": 0, "remark": null, "class": "SCHED_A", "marker-symbol": "fire-station", "marker-size": "medium", "marker-color": "0000FF" }, "geometry": { "type": "Point", "coordinates": [ -120.003495395344601, 35.320954291661515 ] } },
{ "type": "Feature", "properties": { "name": "Shell Beach FS", "owner": "CITY", "unit": "SLU", "address": "2555 Shell Beach Road", "city": "Pismo Beach", "zip": "93449", "county": "San Luis Obispo", "cad_name": "SLU Shell Beach Stn", "lat": 35.162221012800003, "lon": -120.684396674, "funding": "A", "phone_num": "805-773-7051", "aka": "#63", "eng_type_1": 0, "eng_type_2": 1, "eng_type_3": 0, "wtender_ty": 0, "wtender__1": 0, "other_reso": "0", "staffing": "P", "type": "FS", "doz_type_2": 0, "remark": null, "class": "SCHED_A", "marker-symbol": "fire-station", "marker-size": "medium", "marker-color": "0000FF" }, "geometry": { "type": "Point", "coordinates": [ -120.684396674372294, 35.162221012762423 ] } },
{ "type": "Feature", "properties": { "name": "Avila Valley FS", "owner": "COUNTY", "unit": "SLU", "address": "1551 Sparrow Street", "city": "San Luis Obispo", "zip": "93405", "county": "San Luis Obispo", "cad_name": "SLU Avila Valley Stn", "lat": 35.193749726199997, "lon": -120.718626286, "funding": "A", "phone_num": "805-595-2115", "aka": "#62", "eng_type_1": 1, "eng_type_2": 0, "eng_type_3": 0, "wtender_ty": 0, "wtender__1": 0, "other_reso": "BreathingSupp", "staffing": "P", "type": "FS", "doz_type_2": 0, "remark": null, "class": "SCHED_A", "marker-symbol": "fire-station", "marker-size": "medium", "marker-color": "0000FF" }, "geometry": { "type": "Point", "coordinates": [ -120.718626285955693, 35.193749726187853 ] } },
{ "type": "Feature", "properties": { "name": "Pismo Beach FS", "owner": "CITY", "unit": "SLU", "address": "1000 Bello Street", "city": "Pismo Beach", "zip": "93449", "county": "San Luis Obispo", "cad_name": "SLU Pismo Stn", "lat": 35.1440975382, "lon": -120.640374345, "funding": "A", "phone_num": "805-773-7050", "aka": "#64", "eng_type_1": 2, "eng_type_2": 0, "eng_type_3": 0, "wtender_ty": 0, "wtender__1": 0, "other_reso": "Sm Rescue", "staffing": "P", "type": "FS", "doz_type_2": 0, "remark": null, "class": "SCHED_A", "marker-symbol": "fire-station", "marker-size": "medium", "marker-color": "0000FF" }, "geometry": { "type": "Point", "coordinates": [ -120.640374345405036, 35.144097538200022 ] } },
{ "type": "Feature", "properties": { "name": "Parkhill FS", "owner": "COUNTY", "unit": "SLU", "address": "6140 Parkhill Rd", "city": "Santa Margarita", "zip": "93453", "county": "San Luis Obispo", "cad_name": "SLU Parkhill Stn", "lat": 35.407646348299998, "lon": -120.545853886, "funding": "A", "phone_num": "805-438-5426", "aka": "#40", "eng_type_1": 0, "eng_type_2": 1, "eng_type_3": 0, "wtender_ty": 0, "wtender__1": 1, "other_reso": "0", "staffing": "P", "type": "FS", "doz_type_2": 0, "remark": null, "class": "SCHED_A", "marker-symbol": "fire-station", "marker-size": "medium", "marker-color": "0000FF" }, "geometry": { "type": "Point", "coordinates": [ -120.545853886010875, 35.407646348305995 ] } },
{ "type": "Feature", "properties": { "name": "Shandon FS", "owner": "COUNTY", "unit": "SLU", "address": "501 W. Center St", "city": "Shandon", "zip": "93461", "county": "San Luis Obispo", "cad_name": "SLU Shandon Stn", "lat": 35.656261539699997, "lon": -120.381226808, "funding": "A", "phone_num": "805-238-4957", "aka": "#31", "eng_type_1": 1, "eng_type_2": 0, "eng_type_3": 0, "wtender_ty": 0, "wtender__1": 0, "other_reso": "0", "staffing": "P", "type": "FS", "doz_type_2": 0, "remark": null, "class": "SCHED_A", "marker-symbol": "fire-station", "marker-size": "medium", "marker-color": "0000FF" }, "geometry": { "type": "Point", "coordinates": [ -120.381226807744483, 35.656261539725705 ] } },
{ "type": "Feature", "properties": { "name": "Paso Robles FS", "owner": "COUNTY", "unit": "SLU", "address": "2510 Ramada Dr", "city": "Paso Robles", "zip": "93446", "county": "San Luis Obispo", "cad_name": "SLU Paso Robles Stn", "lat": 35.5813805835, "lon": -120.695481908, "funding": "A", "phone_num": "805-227-6553", "aka": "#30", "eng_type_1": 1, "eng_type_2": 0, "eng_type_3": 0, "wtender_ty": 0, "wtender__1": 0, "other_reso": "Sm Rescue, Hazmat", "staffing": "P", "type": "FS", "doz_type_2": 0, "remark": null, "class": "SCHED_A", "marker-symbol": "fire-station", "marker-size": "medium", "marker-color": "0000FF" }, "geometry": { "type": "Point", "coordinates": [ -120.695481908448599, 35.581380583513479 ] } },
{ "type": "Feature", "properties": { "name": "Cambria FS", "owner": "COUNTY", "unit": "SLU", "address": "6126 Coventry Ln", "city": "Cambria", "zip": "93428", "county": "San Luis Obispo", "cad_name": "SLU Cambria STN", "lat": 35.572868266599997, "lon": -121.104355134, "funding": "A", "phone_num": "805-927-4262", "aka": "#10", "eng_type_1": 1, "eng_type_2": 0, "eng_type_3": 0, "wtender_ty": 0, "wtender__1": 0, "other_reso": "ICS Type 2 Rescue", "staffing": "P", "type": "FS", "doz_type_2": 0, "remark": null, "class": "SCHED_A", "marker-symbol": "fire-station", "marker-size": "medium", "marker-color": "0000FF" }, "geometry": { "type": "Point", "coordinates": [ -121.104355134427351, 35.572868266576819 ] } },
{ "type": "Feature", "properties": { "name": "SLU Headquarters", "owner": "COUNTY", "unit": "SLU", "address": "635 N. Santa Rosa St", "city": "San Luis Obispo", "zip": "93405", "county": "San Luis Obispo", "cad_name": "SLU Admin", "lat": 35.301720368300003, "lon": -120.678458424, "funding": "A", "phone_num": "805-543-4244", "aka": "#12", "eng_type_1": 1, "eng_type_2": 0, "eng_type_3": 0, "wtender_ty": 0, "wtender__1": 0, "other_reso": "0", "staffing": "V", "type": "FS", "doz_type_2": 0, "remark": "null", "class": "SCHED_A", "marker-symbol": "fire-station", "marker-size": "small", "marker-color": "0000FF" }, "geometry": { "type": "Point", "coordinates": [ -120.678458424386662, 35.301720368292663 ] } },
{ "type": "Feature", "properties": { "name": "Nipomo FS", "owner": "COUNTY", "unit": "SLU", "address": "450 Pioneer Av", "city": "Nipomo", "zip": "93444", "county": "San Luis Obispo", "cad_name": "SLU Nipomo Stn", "lat": 35.040692406399998, "lon": -120.486887429, "funding": "A", "phone_num": "805-929-3911", "aka": "#20", "eng_type_1": 0, "eng_type_2": 2, "eng_type_3": 0, "wtender_ty": 0, "wtender__1": 0, "other_reso": "Sm Rescue", "staffing": "P", "type": "FS", "doz_type_2": 0, "remark": null, "class": "SCHED_A", "marker-symbol": "fire-station", "marker-size": "medium", "marker-color": "0000FF" }, "geometry": { "type": "Point", "coordinates": [ -120.486887428983152, 35.040692406356079 ] } },
{ "type": "Feature", "properties": { "name": "Las Tablas FS", "owner": "STATE", "unit": "SLU", "address": "275 Cypress Mt. Drive", "city": "Paso Robles", "zip": "93446", "county": "San Luis Obispo", "cad_name": "SLU Las Tablas FS", "lat": 35.656882515200003, "lon": -120.923289991, "funding": "B", "phone_num": "805-238-4592", "aka": "#35", "eng_type_1": 0, "eng_type_2": 0, "eng_type_3": 1, "wtender_ty": 0, "wtender__1": 0, "other_reso": null, "staffing": null, "type": "FS", "doz_type_2": 0, "remark": null, "class": "FS", "marker-symbol": "fire-station", "marker-size": "medium", "marker-color": "FF0000" }, "geometry": { "type": "Point", "coordinates": [ -120.923289990819839, 35.656882515217021 ] } },
{ "type": "Feature", "properties": { "name": "Cayucos FS", "owner": "STATE", "unit": "SLU", "address": "Hwy. 1 @ Chaney", "city": "Cayucos", "zip": "93430", "county": "San Luis Obispo", "cad_name": "SLU Cayucos FS", "lat": 35.421176813199999, "lon": -120.876293085, "funding": "B", "phone_num": "805-995-1133", "aka": "#11", "eng_type_1": 0, "eng_type_2": 0, "eng_type_3": 1, "wtender_ty": 0, "wtender__1": 0, "other_reso": null, "staffing": null, "type": "FS", "doz_type_2": 0, "remark": null, "class": "FS", "marker-symbol": "fire-station", "marker-size": "medium", "marker-color": "FF0000" }, "geometry": { "type": "Point", "coordinates": [ -120.876293085362533, 35.421176813159789 ] } },
{ "type": "Feature", "properties": { "name": "La Panza FS", "owner": "STATE", "unit": "SLU", "address": "5398 Pozo Rd, Star Rt, Box 75A", "city": "Santa Margarita", "zip": "93453", "county": "San Luis Obispo", "cad_name": "SLU La Panza FS", "lat": 35.380231923700002, "lon": -120.188283954, "funding": "B", "phone_num": "805-438-5460", "aka": "#41", "eng_type_1": 0, "eng_type_2": 0, "eng_type_3": 1, "wtender_ty": 0, "wtender__1": 0, "other_reso": null, "staffing": null, "type": "FS", "doz_type_2": 0, "remark": null, "class": "FS", "marker-symbol": "fire-station", "marker-size": "medium", "marker-color": "FF0000" }, "geometry": { "type": "Point", "coordinates": [ -120.188283953899784, 35.38023192372242 ] } },
{ "type": "Feature", "properties": { "name": "Paso Robles AAB", "owner": "STATE", "unit": "SLU", "address": "3403 Taxiway A", "city": "Paso Robles", "zip": "93446", "county": "San Luis Obispo", "cad_name": "SLU Paso Robles AAB", "lat": 35.677656264100001, "lon": -120.633074293, "funding": "B", "phone_num": "805-238-1878", "aka": null, "eng_type_1": 0, "eng_type_2": 0, "eng_type_3": 0, "wtender_ty": 0, "wtender__1": 0, "other_reso": null, "staffing": null, "type": "AAB", "doz_type_2": 0, "remark": null, "class": "AIR", "marker-symbol": "airport", "marker-size": "medium", "marker-color": "000000" }, "geometry": { "type": "Point", "coordinates": [ -120.633074293498197, 35.677656264079687 ] } },
{ "type": "Feature", "properties": { "name": "Cuesta CC", "owner": "STATE", "unit": "SLU", "address": "Rt. 2, Box 427, Bld 962", "city": "San Luis Obispo", "zip": "93401", "county": "San Luis Obispo", "cad_name": "SLU Cuesta CC", "lat": 35.329401, "lon": -120.733174, "funding": "B", "phone_num": "805-543-9570", "aka": null, "eng_type_1": 0, "eng_type_2": 0, "eng_type_3": 0, "wtender_ty": 0, "wtender__1": 0, "other_reso": null, "staffing": null, "type": "CC", "doz_type_2": 0, "remark": null, "class": "CAMPS", "marker-symbol": "logging", "marker-size": "medium", "marker-color": "FFA500" }, "geometry": { "type": "Point", "coordinates": [ -120.733173759094797, 35.329401419681709 ] } },
{ "type": "Feature", "properties": { "name": "San Luis Obispo ICC", "owner": "STATE", "unit": "SLU", "address": "635 North Santa Rosa", "city": "San Luis Obispo", "zip": "93405", "county": "San Luis Obispo", "cad_name": "SLU San Luis Obispo ICC", "lat": 35.301908488199999, "lon": -120.678667348, "funding": "B", "phone_num": "805-543-4244", "aka": "null", "eng_type_1": 0, "eng_type_2": 0, "eng_type_3": 0, "wtender_ty": 0, "wtender__1": 0, "other_reso": "null", "staffing": "null", "type": "ICC", "doz_type_2": 0, "remark": "null", "class": "OTHER", "marker-symbol": "emergency-telephone", "marker-size": "small", "marker-color": null }, "geometry": { "type": "Point", "coordinates": [ -120.678667347579236, 35.301908488215503 ] } },
{ "type": "Feature", "properties": { "name": "San Luis Obispo UH", "owner": "STATE", "unit": "SLU", "address": "635 North Santa Rosa", "city": "San Luis Obispo", "zip": "93405", "county": "San Luis Obispo", "cad_name": "SLU San Luis Obispo UH", "lat": 35.301851314, "lon": -120.676794769, "funding": "B", "phone_num": "805-543-4244", "aka": "null", "eng_type_1": 0, "eng_type_2": 0, "eng_type_3": 0, "wtender_ty": 0, "wtender__1": 0, "other_reso": "null", "staffing": "null", "type": "UH", "doz_type_2": 0, "remark": "null", "class": "OTHER", "marker-symbol": "town-hall", "marker-size": "large", "marker-color": "008000" }, "geometry": { "type": "Point", "coordinates": [ -120.676794768714416, 35.301851313952007 ] } },
{ "type": "Feature", "properties": { "name": "Mount Lowe COM", "owner": "STATE", "unit": "SLU", "address": null, "city": null, "zip": null, "county": "San Luis Obispo", "cad_name": "SLU Mount Lowe COM", "lat": 35.319646797600001, "lon": -120.601281832, "funding": "B", "phone_num": "805-543-4244", "aka": null, "eng_type_1": 0, "eng_type_2": 0, "eng_type_3": 0, "wtender_ty": 0, "wtender__1": 0, "other_reso": null, "staffing": null, "type": "COM", "doz_type_2": 0, "remark": null, "class": "OTHER", "marker-symbol": "oil-well", "marker-size": "medium", "marker-color": "000000" }, "geometry": { "type": "Point", "coordinates": [ -120.601281831762464, 35.319646797581484 ] } },
{ "type": "Feature", "properties": { "name": "Red Hill COM", "owner": "STATE", "unit": "SLU", "address": null, "city": null, "zip": null, "county": "San Luis Obispo", "cad_name": "SLU Red Hill COM", "lat": 35.607516626699997, "lon": -120.25632911, "funding": "B", "phone_num": "805-543-4244", "aka": null, "eng_type_1": 0, "eng_type_2": 0, "eng_type_3": 0, "wtender_ty": 0, "wtender__1": 0, "other_reso": null, "staffing": null, "type": "COM", "doz_type_2": 0, "remark": null, "class": "OTHER", "marker-symbol": "oil-well", "marker-size": "medium", "marker-color": "000000" }, "geometry": { "type": "Point", "coordinates": [ -120.25632911041663, 35.607516626699159 ] } },
{ "type": "Feature", "properties": { "name": "North County Auto Shop", "owner": "STATE", "unit": "SLU", "address": "4735 Airport Road", "city": "Paso Robles", "zip": "93446", "county": "San Luis Obispo", "cad_name": "SLU North County Shop", "lat": 35.6700189365, "lon": -120.642456274, "funding": "B", "phone_num": "805-239-1579", "aka": null, "eng_type_1": 0, "eng_type_2": 0, "eng_type_3": 0, "wtender_ty": 0, "wtender__1": 0, "other_reso": null, "staffing": null, "type": "EQF", "doz_type_2": 1, "remark": null, "class": "OTHER", "marker-symbol": "bus", "marker-size": "small", "marker-color": "000000" }, "geometry": { "type": "Point", "coordinates": [ -120.642456274050247, 35.670018936540835 ] } },
{ "type": "Feature", "properties": { "name": "South County Auto Shop", "owner": "STATE", "unit": "SLU", "address": "635 North Santa Rosa", "city": "635 North Santa Rosa", "zip": "93405", "county": "San Luis Obispo", "cad_name": "SLU South County Shop", "lat": 35.302144502300003, "lon": -120.678181326, "funding": "B", "phone_num": "805-543-4244", "aka": null, "eng_type_1": 0, "eng_type_2": 0, "eng_type_3": 0, "wtender_ty": 0, "wtender__1": 0, "other_reso": null, "staffing": null, "type": "EQF", "doz_type_2": 0, "remark": null, "class": "OTHER", "marker-symbol": "bus", "marker-size": "small", "marker-color": "000000" }, "geometry": { "type": "Point", "coordinates": [ -120.67818132579346, 35.30214450229191 ] } },
{ "type": "Feature", "properties": { "name": "South Bay Training Center", "owner": "COUNTY", "unit": "SLU", "address": "880 Manzanita Drive", "city": "Los Osos", "zip": "93402", "county": "San Luis Obispo", "cad_name": "SLU SBTC", "lat": 35.309973124899997, "lon": -120.83575646, "funding": "A", "phone_num": "805-528-2160", "aka": null, "eng_type_1": 0, "eng_type_2": 0, "eng_type_3": 0, "wtender_ty": 0, "wtender__1": 0, "other_reso": null, "staffing": null, "type": "EQF", "doz_type_2": 0, "remark": null, "class": "OTHER", "marker-symbol": "building", "marker-size": "small", "marker-color": "000000" }, "geometry": { "type": "Point", "coordinates": [ -120.835756459894696, 35.309973124856697 ] } }
]
}
